header: 
  seq: 26242
  stamp: 
    secs: 1701089994
    nsecs: 569408349
  frame_id: ''
name: 
  - joint1
  - joint2
  - joint3
  - joint4
  - gripper
position: [0.0, -0.2316311001777649, -0.3635534644126892, 2.1491072177886963, 0.04519107699394226]
velocity: [0.0, 0.0, 0.0, 0.0, 0.0]
effort: [0.0, -94.1500015258789, -86.08000183105469, 0.0, 0.0]
---
header: 
  seq: 26243
  stamp: 
    secs: 1701089994
    nsecs: 579409012
  frame_id: ''
name: 
  - joint1
  - joint2
  - joint3
  - joint4
  - gripper
position: [0.0, -0.2316311001777649, -0.3635534644126892, 2.1491072177886963, 0.045168067216873165]
velocity: [0.0, 0.0, 0.0, 0.0, 0.0]
effort: [0.0, -94.1500015258789, -86.08000183105469, 0.0, 0.0]
---
header: 
  seq: 26244
  stamp: 
    secs: 1701089994
    nsecs: 589374176
  frame_id: ''
name: 
  - joint1
  - joint2
  - joint3
  - joint4
  - gripper
position: [0.0, -0.2316311001777649, -0.3635534644126892, 2.1491072177886963, 0.045168067216873165]
velocity: [0.0, 0.0, 0.0, 0.0, 0.0]
effort: [0.0, -94.1500015258789, -86.08000183105469, 0.0, 0.0]
---
header: 
  seq: 26245
  stamp: 
    secs: 1701089994
    nsecs: 599404320
  frame_id: ''
name: 
  - joint1
  - joint2
  - joint3
  - joint4
  - gripper
position: [0.0, -0.2316311001777649, -0.3635534644126892, 2.1491072177886963, 0.045168067216873165]
velocity: [0.0, 0.0, 0.0, 0.0, 0.0]
effort: [0.0, -91.45999908447266, -107.60000610351562, 0.0, 0.0]
---
header: 
  seq: 26246
  stamp: 
    secs: 1701089994
    nsecs: 609415520
  frame_id: ''
name: 
  - joint1
  - joint2
  - joint3
  - joint4
  - gripper
position: [0.0, -0.2316311001777649, -0.3635534644126892, 2.1491072177886963, 0.045168067216873165]
velocity: [0.0, 0.0, 0.0, 0.0, 0.0]
effort: [0.0, -91.45999908447266, -107.60000610351562, 0.0, 0.0]
---
header: 
  seq: 26247
  stamp: 
    secs: 1701089994
    nsecs: 619415905
  frame_id: ''
name: 
  - joint1
  - joint2
  - joint3
  - joint4
  - gripper
position: [0.0, -0.2316311001777649, -0.3635534644126892, 2.1491072177886963, 0.045168067216873165]
velocity: [0.0, 0.0, 0.0, 0.0, 0.0]
effort: [0.0, -91.45999908447266, -107.60000610351562, 0.0, 0.0]
---
header: 
  seq: 26248
  stamp: 
    secs: 1701089994
    nsecs: 629442086
  frame_id: ''
name: 
  - joint1
  - joint2
  - joint3
  - joint4
  - gripper
position: [0.0, -0.2316311001777649, -0.3635534644126892, 2.1491072177886963, 0.045168067216873165]
velocity: [0.0, 0.0, 0.0, 0.0, 0.0]
effort: [0.0, -94.1500015258789, -107.60000610351562, 0.0, 0.0]
---
header: 
  seq: 26249
  stamp: 
    secs: 1701089994
    nsecs: 639425990
  frame_id: ''
name: 
  - joint1
  - joint2
  - joint3
  - joint4
  - gripper
position: [0.0, -0.2316311001777649, -0.3635534644126892, 2.1491072177886963, 0.045168067216873165]
velocity: [0.0, 0.0, 0.0, 0.0, 0.0]
effort: [0.0, -94.1500015258789, -107.60000610351562, 0.0, 0.0]
---
header: 
  seq: 26250
  stamp: 
    secs: 1701089994
    nsecs: 649419097
  frame_id: ''
name: 
  - joint1
  - joint2
  - joint3
  - joint4
  - gripper
position: [0.0, -0.2316311001777649, -0.3635534644126892, 2.1491072177886963, 0.04519107699394226]
velocity: [0.0, 0.0, 0.0, 0.0, 0.0]
effort: [0.0, -94.1500015258789, -107.60000610351562, 0.0, 0.0]
---
header: 
  seq: 26251
  stamp: 
    secs: 1701089994
    nsecs: 659410020
  frame_id: ''
name: 
  - joint1
  - joint2
  - joint3
  - joint4
  - gripper
position: [0.0, -0.2316311001777649, -0.3635534644126892, 2.1491072177886963, 0.04519107699394226]
velocity: [0.0, 0.0, 0.0, 0.0, 0.0]
effort: [0.0, -91.45999908447266, -104.91000366210938, 0.0, 0.0]
---
header: 
  seq: 26252
  stamp: 
    secs: 1701089994
    nsecs: 669411368
  frame_id: ''
name: 
  - joint1
  - joint2
  - joint3
  - joint4
  - gripper
position: [0.0, -0.2316311001777649, -0.3635534644126892, 2.1491072177886963, 0.04519107699394226]
velocity: [0.0, 0.0, 0.0, 0.0, 0.0]
effort: [0.0, -91.45999908447266, -104.91000366210938, 0.0, 0.0]
---
header: 
  seq: 26253
  stamp: 
    secs: 1701089994
    nsecs: 679414123
  frame_id: ''
name: 
  - joint1
  - joint2
  - joint3
  - joint4
  - gripper
position: [0.0, -0.2316311001777649, -0.3635534644126892, 2.1491072177886963, 0.04519107699394226]
velocity: [0.0, 0.0, 0.0, 0.0, 0.0]
effort: [0.0, -91.45999908447266, -104.91000366210938, 0.0, 0.0]
---
header: 
  seq: 26254
  stamp: 
    secs: 1701089994
    nsecs: 689417860
  frame_id: ''
name: 
  - joint1
  - joint2
  - joint3
  - joint4
  - gripper
position: [0.0, -0.2316311001777649, -0.3635534644126892, 2.1491072177886963, 0.04519107699394226]
velocity: [0.0, 0.0, 0.0, 0.0, 0.0]
effort: [0.0, -94.1500015258789, -86.08000183105469, 0.0, 0.0]
---
header: 
  seq: 26255
  stamp: 
    secs: 1701089994
    nsecs: 699411968
  frame_id: ''
name: 
  - joint1
  - joint2
  - joint3
  - joint4
  - gripper
position: [0.0, -0.2316311001777649, -0.3635534644126892, 2.1491072177886963, 0.04519107699394226]
velocity: [0.0, 0.0, 0.0, 0.0, 0.0]
effort: [0.0, -94.1500015258789, -86.08000183105469, 0.0, 0.0]
---
header: 
  seq: 26256
  stamp: 
    secs: 1701089994
    nsecs: 709421742
  frame_id: ''
name: 
  - joint1
  - joint2
  - joint3
  - joint4
  - gripper
position: [0.0, -0.2316311001777649, -0.3635534644126892, 2.1491072177886963, 0.045168067216873165]
velocity: [0.0, 0.0, 0.0, 0.0, 0.0]
effort: [0.0, -94.1500015258789, -86.08000183105469, 0.0, 0.0]
---
header: 
  seq: 26257
  stamp: 
    secs: 1701089994
    nsecs: 719415256
  frame_id: ''
name: 
  - joint1
  - joint2
  - joint3
  - joint4
  - gripper
position: [0.0, -0.2316311001777649, -0.3635534644126892, 2.1491072177886963, 0.045168067216873165]
velocity: [0.0, 0.0, 0.0, 0.0, 0.0]
effort: [0.0, -94.1500015258789, -86.08000183105469, 0.0, 0.0]
---
header: 
  seq: 26258
  stamp: 
    secs: 1701089994
    nsecs: 729417290
  frame_id: ''
name: 
  - joint1
  - joint2
  - joint3
  - joint4
  - gripper
position: [0.0, -0.2316311001777649, -0.3635534644126892, 2.1491072177886963, 0.045168067216873165]
velocity: [0.0, 0.0, 0.0, 0.0, 0.0]
effort: [0.0, -91.45999908447266, -88.77000427246094, -2.690000057220459, 0.0]
---
header: 
  seq: 26259
  stamp: 
    secs: 1701089994
    nsecs: 739418434
  frame_id: ''
name: 
  - joint1
  - joint2
  - joint3
  - joint4
  - gripper
position: [0.0, -0.2316311001777649, -0.3635534644126892, 2.1491072177886963, 0.045168067216873165]
velocity: [0.0, 0.0, 0.0, 0.0, 0.0]
effort: [0.0, -91.45999908447266, -88.77000427246094, -2.690000057220459, 0.0]
---
header: 
  seq: 26260
  stamp: 
    secs: 1701089994
    nsecs: 749428634
  frame_id: ''
name: 
  - joint1
  - joint2
  - joint3
  - joint4
  - gripper
position: [0.0, -0.2316311001777649, -0.3635534644126892, 2.1491072177886963, 0.045168067216873165]
velocity: [0.0, 0.0, 0.0, 0.0, 0.0]
effort: [0.0, -91.45999908447266, -88.77000427246094, -2.690000057220459, 0.0]
---
header: 
  seq: 26261
  stamp: 
    secs: 1701089994
    nsecs: 759412464
  frame_id: ''
name: 
  - joint1
  - joint2
  - joint3
  - joint4
  - gripper
position: [0.0, -0.2316311001777649, -0.3635534644126892, 2.1491072177886963, 0.045168067216873165]
velocity: [0.0, 0.0, 0.0, 0.0, 0.0]
effort: [0.0, -88.77000427246094, -88.77000427246094, 0.0, 0.0]
---
header: 
  seq: 26262
  stamp: 
    secs: 1701089994
    nsecs: 769412738
  frame_id: ''
name: 
  - joint1
  - joint2
  - joint3
  - joint4
  - gripper
position: [0.0, -0.2316311001777649, -0.3635534644126892, 2.1491072177886963, 0.04519107699394226]
velocity: [0.0, 0.0, 0.0, 0.0, 0.0]
effort: [0.0, -88.77000427246094, -88.77000427246094, 0.0, 0.0]
---
header: 
  seq: 26263
  stamp: 
    secs: 1701089994
    nsecs: 779417938
  frame_id: ''
name: 
  - joint1
  - joint2
  - joint3
  - joint4
  - gripper
position: [0.0, -0.2316311001777649, -0.3635534644126892, 2.1491072177886963, 0.04519107699394226]
velocity: [0.0, 0.0, 0.0, 0.0, 0.0]
effort: [0.0, -88.77000427246094, -88.77000427246094, 0.0, 0.0]
---
header: 
  seq: 26264
  stamp: 
    secs: 1701089994
    nsecs: 789415915
  frame_id: ''
name: 
  - joint1
  - joint2
  - joint3
  - joint4
  - gripper
position: [0.0, -0.2316311001777649, -0.3635534644126892, 2.1491072177886963, 0.04519107699394226]
velocity: [0.0, 0.0, 0.0, 0.0, 0.0]
effort: [0.0, -94.1500015258789, -88.77000427246094, 0.0, 0.0]
---
header: 
  seq: 26265
  stamp: 
    secs: 1701089994
    nsecs: 799412338
  frame_id: ''
name: 
  - joint1
  - joint2
  - joint3
  - joint4
  - gripper
position: [0.0, -0.2316311001777649, -0.3635534644126892, 2.1491072177886963, 0.04519107699394226]
velocity: [0.0, 0.0, 0.0, 0.0, 0.0]
effort: [0.0, -94.1500015258789, -88.77000427246094, 0.0, 0.0]
---
header: 
  seq: 26266
  stamp: 
    secs: 1701089994
    nsecs: 809422464
  frame_id: ''
name: 
  - joint1
  - joint2
  - joint3
  - joint4
  - gripper
position: [0.0, -0.2316311001777649, -0.3635534644126892, 2.1491072177886963, 0.045168067216873165]
velocity: [0.0, 0.0, 0.0, 0.0, 0.0]
effort: [0.0, -94.1500015258789, -88.77000427246094, 0.0, 0.0]
---
header: 
  seq: 26267
  stamp: 
    secs: 1701089994
    nsecs: 819417182
  frame_id: ''
name: 
  - joint1
  - joint2
  - joint3
  - joint4
  - gripper
position: [0.0, -0.2316311001777649, -0.3635534644126892, 2.1491072177886963, 0.045168067216873165]
velocity: [0.0, 0.0, 0.0, 0.0, 0.0]
effort: [0.0, -94.1500015258789, -86.08000183105469, 0.0, 0.0]
---
header: 
  seq: 26268
  stamp: 
    secs: 1701089994
    nsecs: 829421308
  frame_id: ''
name: 
  - joint1
  - joint2
  - joint3
  - joint4
  - gripper
position: [0.0, -0.2316311001777649, -0.3635534644126892, 2.1491072177886963, 0.045168067216873165]
velocity: [0.0, 0.0, 0.0, 0.0, 0.0]
effort: [0.0, -94.1500015258789, -86.08000183105469, 0.0, 0.0]
---
header: 
  seq: 26269
  stamp: 
    secs: 1701089994
    nsecs: 839420545
  frame_id: ''
name: 
  - joint1
  - joint2
  - joint3
  - joint4
  - gripper
position: [0.0, -0.2316311001777649, -0.3635534644126892, 2.1491072177886963, 0.04519107699394226]
velocity: [0.0, 0.0, 0.0, 0.0, 0.0]
effort: [0.0, -94.1500015258789, -86.08000183105469, 0.0, 0.0]
---
header: 
  seq: 26270
  stamp: 
    secs: 1701089994
    nsecs: 849413004
  frame_id: ''
name: 
  - joint1
  - joint2
  - joint3
  - joint4
  - gripper
position: [0.0, -0.2316311001777649, -0.3635534644126892, 2.1491072177886963, 0.04519107699394226]
velocity: [0.0, 0.0, 0.0, 0.0, 0.0]
effort: [0.0, -94.1500015258789, -104.91000366210938, 0.0, 0.0]
---
header: 
  seq: 26271
  stamp: 
    secs: 1701089994
    nsecs: 859409649
  frame_id: ''
name: 
  - joint1
  - joint2
  - joint3
  - joint4
  - gripper
position: [0.0, -0.2316311001777649, -0.3635534644126892, 2.1491072177886963, 0.04519107699394226]
velocity: [0.0, 0.0, 0.0, 0.0, 0.0]
effort: [0.0, -94.1500015258789, -104.91000366210938, 0.0, 0.0]
---
header: 
  seq: 26272
  stamp: 
    secs: 1701089994
    nsecs: 869416052
  frame_id: ''
name: 
  - joint1
  - joint2
  - joint3
  - joint4
  - gripper
position: [0.0, -0.2316311001777649, -0.3635534644126892, 2.1491072177886963, 0.045168067216873165]
velocity: [0.0, 0.0, 0.0, 0.0, 0.0]
effort: [0.0, -94.1500015258789, -104.91000366210938, 0.0, 0.0]
---
header: 
  seq: 26273
  stamp: 
    secs: 1701089994
    nsecs: 879499603
  frame_id: ''
name: 
  - joint1
  - joint2
  - joint3
  - joint4
  - gripper
position: [0.0, -0.2316311001777649, -0.3635534644126892, 2.1491072177886963, 0.045168067216873165]
velocity: [0.0, 0.0, 0.0, 0.0, 0.0]
effort: [0.0, -94.1500015258789, -104.91000366210938, 0.0, 0.0]
---
header: 
  seq: 26274
  stamp: 
    secs: 1701089994
    nsecs: 889504526
  frame_id: ''
name: 
  - joint1
  - joint2
  - joint3
  - joint4
  - gripper
position: [-0.0015339808305725455, -0.2316311001777649, -0.3635534644126892, 2.1491072177886963, 0.045168067216873165]
velocity: [0.0, 0.0, 0.0, 0.0, 0.0]
effort: [0.0, -88.77000427246094, -107.60000610351562, 0.0, 0.0]
---
header: 
  seq: 26275
  stamp: 
    secs: 1701089994
    nsecs: 899414930
  frame_id: ''
name: 
  - joint1
  - joint2
  - joint3
  - joint4
  - gripper
position: [-0.0015339808305725455, -0.2316311001777649, -0.3635534644126892, 2.1491072177886963, 0.04519107699394226]
velocity: [0.0, 0.0, 0.0, 0.0, 0.0]
effort: [0.0, -88.77000427246094, -107.60000610351562, 0.0, 0.0]
---
header: 
  seq: 26276
  stamp: 
    secs: 1701089994
    nsecs: 909418278
  frame_id: ''
name: 
  - joint1
  - joint2
  - joint3
  - joint4
  - gripper
position: [-0.0015339808305725455, -0.2316311001777649, -0.3635534644126892, 2.1491072177886963, 0.04519107699394226]
velocity: [0.0, 0.0, 0.0, 0.0, 0.0]
effort: [0.0, -88.77000427246094, -107.60000610351562, 0.0, 0.0]
---
header: 
  seq: 26277
  stamp: 
    secs: 1701089994
    nsecs: 919416941
  frame_id: ''
name: 
  - joint1
  - joint2
  - joint3
  - joint4
  - gripper
position: [0.0, -0.2316311001777649, -0.3635534644126892, 2.1491072177886963, 0.04519107699394226]
velocity: [0.0, 0.0, 0.0, 0.0, 0.0]
effort: [0.0, -94.1500015258789, -94.1500015258789, 0.0, 0.0]
---
header: 
  seq: 26278
  stamp: 
    secs: 1701089994
    nsecs: 929416678
  frame_id: ''
name: 
  - joint1
  - joint2
  - joint3
  - joint4
  - gripper
position: [0.0, -0.2316311001777649, -0.3635534644126892, 2.1491072177886963, 0.045168067216873165]
velocity: [0.0, 0.0, 0.0, 0.0, 0.0]
effort: [0.0, -94.1500015258789, -94.1500015258789, 0.0, 0.0]
---
header: 
  seq: 26279
  stamp: 
    secs: 1701089994
    nsecs: 939416267
  frame_id: ''
name: 
  - joint1
  - joint2
  - joint3
  - joint4
  - gripper
position: [0.0, -0.2316311001777649, -0.3635534644126892, 2.1491072177886963, 0.045168067216873165]
velocity: [0.0, 0.0, 0.0, 0.0, 0.0]
effort: [0.0, -94.1500015258789, -94.1500015258789, 0.0, 0.0]
---
header: 
  seq: 26280
  stamp: 
    secs: 1701089994
    nsecs: 949411208
  frame_id: ''
name: 
  - joint1
  - joint2
  - joint3
  - joint4
  - gripper
position: [-0.0015339808305725455, -0.2316311001777649, -0.3635534644126892, 2.1491072177886963, 0.045168067216873165]
velocity: [0.0, 0.0, 0.0, 0.0, 0.0]
effort: [0.0, -88.77000427246094, -88.77000427246094, -2.690000057220459, 0.0]
---
header: 
  seq: 26281
  stamp: 
    secs: 1701089994
    nsecs: 959408685
  frame_id: ''
name: 
  - joint1
  - joint2
  - joint3
  - joint4
  - gripper
position: [-0.0015339808305725455, -0.2316311001777649, -0.3635534644126892, 2.1491072177886963, 0.045168067216873165]
velocity: [0.0, 0.0, 0.0, 0.0, 0.0]
effort: [0.0, -88.77000427246094, -88.77000427246094, -2.690000057220459, 0.0]
---
header: 
  seq: 26282
  stamp: 
    secs: 1701089994
    nsecs: 969410663
  frame_id: ''
name: 
  - joint1
  - joint2
  - joint3
  - joint4
  - gripper
position: [-0.0015339808305725455, -0.2316311001777649, -0.3635534644126892, 2.1491072177886963, 0.045168067216873165]
velocity: [0.0, 0.0, 0.0, 0.0, 0.0]
effort: [0.0, -88.77000427246094, -88.77000427246094, -2.690000057220459, 0.0]
---
header: 
  seq: 26283
  stamp: 
    secs: 1701089994
    nsecs: 979421178
  frame_id: ''
name: 
  - joint1
  - joint2
  - joint3
  - joint4
  - gripper
position: [-0.0015339808305725455, -0.2316311001777649, -0.3635534644126892, 2.1491072177886963, 0.045168067216873165]
velocity: [0.0, 0.0, 0.0, 0.0, 0.0]
effort: [0.0, -91.45999908447266, -86.08000183105469, 0.0, 0.0]
---
header: 
  seq: 26284
  stamp: 
    secs: 1701089994
    nsecs: 989420267
  frame_id: ''
name: 
  - joint1
  - joint2
  - joint3
  - joint4
  - gripper
position: [-0.0015339808305725455, -0.2316311001777649, -0.3635534644126892, 2.1491072177886963, 0.045168067216873165]
velocity: [0.0, 0.0, 0.0, 0.0, 0.0]
effort: [0.0, -91.45999908447266, -86.08000183105469, 0.0, 0.0]
---
header: 
  seq: 26285
  stamp: 
    secs: 1701089994
    nsecs: 999410485
  frame_id: ''
name: 
  - joint1
  - joint2
  - joint3
  - joint4
  - gripper
position: [-0.0015339808305725455, -0.2316311001777649, -0.3635534644126892, 2.1491072177886963, 0.045168067216873165]
velocity: [0.0, 0.0, 0.0, 0.0, 0.0]
effort: [0.0, -91.45999908447266, -86.08000183105469, 0.0, 0.0]
---
header: 
  seq: 26286
  stamp: 
    secs: 1701089995
    nsecs:   9418241
  frame_id: ''
name: 
  - joint1
  - joint2
  - joint3
  - joint4
  - gripper
position: [0.0, -0.2316311001777649, -0.3635534644126892, 2.1491072177886963, 0.045168067216873165]
velocity: [0.0, 0.0, 0.0, 0.0, 0.0]
effort: [0.0, -91.45999908447266, -107.60000610351562, 0.0, 0.0]
---
header: 
  seq: 26287
  stamp: 
    secs: 1701089995
    nsecs:  19414978
  frame_id: ''
name: 
  - joint1
  - joint2
  - joint3
  - joint4
  - gripper
position: [0.0, -0.2316311001777649, -0.3635534644126892, 2.1491072177886963, 0.045168067216873165]
velocity: [0.0, 0.0, 0.0, 0.0, 0.0]
effort: [0.0, -91.45999908447266, -107.60000610351562, 0.0, 0.0]
---
header: 
  seq: 26288
  stamp: 
    secs: 1701089995
    nsecs:  29420733
  frame_id: ''
name: 
  - joint1
  - joint2
  - joint3
  - joint4
  - gripper
position: [0.0, -0.2316311001777649, -0.3635534644126892, 2.1491072177886963, 0.045168067216873165]
velocity: [0.0, 0.0, 0.0, 0.0, 0.0]
effort: [0.0, -91.45999908447266, -107.60000610351562, 0.0, 0.0]
---
header: 
  seq: 26289
  stamp: 
    secs: 1701089995
    nsecs:  39414452
  frame_id: ''
name: 
  - joint1
  - joint2
  - joint3
  - joint4
  - gripper
position: [0.0, -0.2316311001777649, -0.3635534644126892, 2.1491072177886963, 0.045168067216873165]
velocity: [0.0, 0.0, 0.0, 0.0, 0.0]
effort: [0.0, -91.45999908447266, -107.60000610351562, 0.0, 0.0]
---
header: 
  seq: 26290
  stamp: 
    secs: 1701089995
    nsecs:  49409207
  frame_id: ''
name: 
  - joint1
  - joint2
  - joint3
  - joint4
  - gripper
position: [0.0, -0.2316311001777649, -0.3635534644126892, 2.1491072177886963, 0.045168067216873165]
velocity: [0.0, 0.0, 0.0, 0.0, 0.0]
effort: [0.0, -91.45999908447266, -86.08000183105469, -2.690000057220459, 0.0]
---
header: 
  seq: 26291
  stamp: 
    secs: 1701089995
    nsecs:  59412981
  frame_id: ''
name: 
  - joint1
  - joint2
  - joint3
  - joint4
  - gripper
position: [0.0, -0.2316311001777649, -0.3635534644126892, 2.1491072177886963, 0.045168067216873165]
velocity: [0.0, 0.0, 0.0, 0.0, 0.0]
effort: [0.0, -91.45999908447266, -86.08000183105469, -2.690000057220459, 0.0]
---
header: 
  seq: 26292
  stamp: 
    secs: 1701089995
    nsecs:  69409237
  frame_id: ''
name: 
  - joint1
  - joint2
  - joint3
  - joint4
  - gripper
position: [0.0, -0.2316311001777649, -0.3635534644126892, 2.1491072177886963, 0.045168067216873165]
velocity: [0.0, 0.0, 0.0, 0.0, 0.0]
effort: [0.0, -91.45999908447266, -86.08000183105469, -2.690000057220459, 0.0]
---
header: 
  seq: 26293
  stamp: 
    secs: 1701089995
    nsecs:  79416955
  frame_id: ''
name: 
  - joint1
  - joint2
  - joint3
  - joint4
  - gripper
position: [0.0, -0.2316311001777649, -0.3635534644126892, 2.1491072177886963, 0.045168067216873165]
velocity: [0.0, 0.0, 0.0, 0.0, 0.0]
effort: [0.0, -91.45999908447266, -86.08000183105469, -2.690000057220459, 0.0]
---
header: 
  seq: 26294
  stamp: 
    secs: 1701089995
    nsecs:  89418229
  frame_id: ''
name: 
  - joint1
  - joint2
  - joint3
  - joint4
  - gripper
position: [0.0, -0.2316311001777649, -0.3635534644126892, 2.1491072177886963, 0.045168067216873165]
velocity: [0.0, 0.0, 0.0, 0.0, 0.0]
effort: [0.0, -91.45999908447266, -86.08000183105469, -2.690000057220459, 0.0]
---
header: 
  seq: 26295
  stamp: 
    secs: 1701089995
    nsecs:  99412670
  frame_id: ''
name: 
  - joint1
  - joint2
  - joint3
  - joint4
  - gripper
position: [0.0, -0.2316311001777649, -0.3635534644126892, 2.1491072177886963, 0.045168067216873165]
velocity: [0.0, 0.0, 0.0, 0.0, 0.0]
effort: [0.0, -91.45999908447266, -86.08000183105469, -2.690000057220459, 0.0]
---
header: 
  seq: 26296
  stamp: 
    secs: 1701089995
    nsecs: 109417444
  frame_id: ''
name: 
  - joint1
  - joint2
  - joint3
  - joint4
  - gripper
position: [0.0, -0.2316311001777649, -0.3635534644126892, 2.1491072177886963, 0.045168067216873165]
velocity: [0.0, 0.0, 0.0, 0.0, 0.0]
effort: [0.0, -94.1500015258789, -88.77000427246094, 0.0, 0.0]
---
header: 
  seq: 26297
  stamp: 
    secs: 1701089995
    nsecs: 119415292
  frame_id: ''
name: 
  - joint1
  - joint2
  - joint3
  - joint4
  - gripper
position: [0.0, -0.2316311001777649, -0.3635534644126892, 2.1491072177886963, 0.045168067216873165]
velocity: [0.0, 0.0, 0.0, 0.0, 0.0]
effort: [0.0, -94.1500015258789, -88.77000427246094, 0.0, 0.0]
---
header: 
  seq: 26298
  stamp: 
    secs: 1701089995
    nsecs: 129421474
  frame_id: ''
name: 
  - joint1
  - joint2
  - joint3
  - joint4
  - gripper
position: [0.0, -0.2316311001777649, -0.3635534644126892, 2.1491072177886963, 0.045168067216873165]
velocity: [0.0, 0.0, 0.0, 0.0, 0.0]
effort: [0.0, -94.1500015258789, -88.77000427246094, 0.0, 0.0]
---
header: 
  seq: 26299
  stamp: 
    secs: 1701089995
    nsecs: 139414359
  frame_id: ''
name: 
  - joint1
  - joint2
  - joint3
  - joint4
  - gripper
position: [-0.0015339808305725455, -0.2316311001777649, -0.3635534644126892, 2.1491072177886963, 0.045168067216873165]
velocity: [0.0, 0.0, 0.0, 0.0, 0.0]
effort: [0.0, -94.1500015258789, -94.1500015258789, 0.0, 0.0]
---
header: 
  seq: 26300
  stamp: 
    secs: 1701089995
    nsecs: 149414652
  frame_id: ''
name: 
  - joint1
  - joint2
  - joint3
  - joint4
  - gripper
position: [-0.0015339808305725455, -0.2316311001777649, -0.3635534644126892, 2.1491072177886963, 0.045168067216873165]
velocity: [0.0, 0.0, 0.0, 0.0, 0.0]
effort: [0.0, -94.1500015258789, -94.1500015258789, 0.0, 0.0]
---
header: 
  seq: 26301
  stamp: 
    secs: 1701089995
    nsecs: 159434074
  frame_id: ''
name: 
  - joint1
  - joint2
  - joint3
  - joint4
  - gripper
position: [-0.0015339808305725455, -0.2316311001777649, -0.3635534644126892, 2.1491072177886963, 0.04519107699394226]
velocity: [0.0, 0.0, 0.0, 0.0, 0.0]
effort: [0.0, -94.1500015258789, -94.1500015258789, 0.0, 0.0]
---
header: 
  seq: 26302
  stamp: 
    secs: 1701089995
    nsecs: 169431403
  frame_id: ''
name: 
  - joint1
  - joint2
  - joint3
  - joint4
  - gripper
position: [-0.0015339808305725455, -0.2316311001777649, -0.3635534644126892, 2.1491072177886963, 0.04519107699394226]
velocity: [0.0, 0.0, 0.0, 0.0, 0.0]
effort: [0.0, -94.1500015258789, -110.29000091552734, 0.0, 0.0]
---
header: 
  seq: 26303
  stamp: 
    secs: 1701089995
    nsecs: 179443325
  frame_id: ''
name: 
  - joint1
  - joint2
  - joint3
  - joint4
  - gripper
position: [-0.0015339808305725455, -0.2316311001777649, -0.3635534644126892, 2.1491072177886963, 0.04519107699394226]
velocity: [0.0, 0.0, 0.0, 0.0, 0.0]
effort: [0.0, -94.1500015258789, -110.29000091552734, 0.0, 0.0]
---
header: 
  seq: 26304
  stamp: 
    secs: 1701089995
    nsecs: 189440748
  frame_id: ''
name: 
  - joint1
  - joint2
  - joint3
  - joint4
  - gripper
position: [-0.0015339808305725455, -0.2316311001777649, -0.3635534644126892, 2.1491072177886963, 0.04519107699394226]
velocity: [0.0, 0.0, 0.0, 0.0, 0.0]
effort: [0.0, -94.1500015258789, -110.29000091552734, 0.0, 0.0]
---
header: 
  seq: 26305
  stamp: 
    secs: 1701089995
    nsecs: 199411429
  frame_id: ''
name: 
  - joint1
  - joint2
  - joint3
  - joint4
  - gripper
position: [-0.0015339808305725455, -0.2316311001777649, -0.3635534644126892, 2.1491072177886963, 0.04519107699394226]
velocity: [0.0, 0.0, 0.0, 0.0, 0.0]
effort: [0.0, -94.1500015258789, -110.29000091552734, 0.0, 0.0]
---
header: 
  seq: 26306
  stamp: 
    secs: 1701089995
    nsecs: 209421722
  frame_id: ''
name: 
  - joint1
  - joint2
  - joint3
  - joint4
  - gripper
position: [0.0, -0.23009712994098663, -0.3635534644126892, 2.1491072177886963, 0.04519107699394226]
velocity: [0.0, 0.0, 0.0, 0.0, 0.0]
effort: [0.0, -94.1500015258789, -107.60000610351562, 0.0, 0.0]
---
header: 
  seq: 26307
  stamp: 
    secs: 1701089995
    nsecs: 219414422
  frame_id: ''
name: 
  - joint1
  - joint2
  - joint3
  - joint4
  - gripper
position: [0.0, -0.23009712994098663, -0.3635534644126892, 2.1491072177886963, 0.04519107699394226]
velocity: [0.0, 0.0, 0.0, 0.0, 0.0]
effort: [0.0, -94.1500015258789, -107.60000610351562, 0.0, 0.0]
---
header: 
  seq: 26308
  stamp: 
    secs: 1701089995
    nsecs: 229421936
  frame_id: ''
name: 
  - joint1
  - joint2
  - joint3
  - joint4
  - gripper
position: [0.0, -0.23009712994098663, -0.3635534644126892, 2.1491072177886963, 0.04519107699394226]
velocity: [0.0, 0.0, 0.0, 0.0, 0.0]
effort: [0.0, -94.1500015258789, -107.60000610351562, 0.0, 0.0]
---
header: 
  seq: 26309
  stamp: 
    secs: 1701089995
    nsecs: 239415822
  frame_id: ''
name: 
  - joint1
  - joint2
  - joint3
  - joint4
  - gripper
position: [0.0, -0.2316311001777649, -0.3635534644126892, 2.1491072177886963, 0.04519107699394226]
velocity: [0.0, 0.0, 0.0, 0.0, 0.0]
effort: [0.0, -94.1500015258789, -86.08000183105469, 0.0, 0.0]
---
header: 
  seq: 26310
  stamp: 
    secs: 1701089995
    nsecs: 249411355
  frame_id: ''
name: 
  - joint1
  - joint2
  - joint3
  - joint4
  - gripper
position: [0.0, -0.2316311001777649, -0.3635534644126892, 2.1491072177886963, 0.04519107699394226]
velocity: [0.0, 0.0, 0.0, 0.0, 0.0]
effort: [0.0, -94.1500015258789, -86.08000183105469, 0.0, 0.0]
---
header: 
  seq: 26311
  stamp: 
    secs: 1701089995
    nsecs: 259408648
  frame_id: ''
name: 
  - joint1
  - joint2
  - joint3
  - joint4
  - gripper
position: [0.0, -0.2316311001777649, -0.3635534644126892, 2.1491072177886963, 0.04519107699394226]
velocity: [0.0, 0.0, 0.0, 0.0, 0.0]
effort: [0.0, -94.1500015258789, -86.08000183105469, 0.0, 0.0]
---
header: 
  seq: 26312
  stamp: 
    secs: 1701089995
    nsecs: 269408514
  frame_id: ''
name: 
  - joint1
  - joint2
  - joint3
  - joint4
  - gripper
position: [0.0, -0.2316311001777649, -0.3635534644126892, 2.1491072177886963, 0.04519107699394226]
velocity: [0.0, 0.0, 0.0, 0.0, 0.0]
effort: [0.0, -94.1500015258789, -83.38999938964844, 0.0, 0.0]
---
header: 
  seq: 26313
  stamp: 
    secs: 1701089995
    nsecs: 279413066
  frame_id: ''
name: 
  - joint1
  - joint2
  - joint3
  - joint4
  - gripper
position: [0.0, -0.2316311001777649, -0.3635534644126892, 2.1491072177886963, 0.04519107699394226]
velocity: [0.0, 0.0, 0.0, 0.0, 0.0]
effort: [0.0, -94.1500015258789, -83.38999938964844, 0.0, 0.0]
---
header: 
  seq: 26314
  stamp: 
    secs: 1701089995
    nsecs: 289419025
  frame_id: ''
name: 
  - joint1
  - joint2
  - joint3
  - joint4
  - gripper
position: [0.0, -0.2316311001777649, -0.3635534644126892, 2.1491072177886963, 0.045168067216873165]
velocity: [0.0, 0.0, 0.0, 0.0, 0.0]
effort: [0.0, -94.1500015258789, -83.38999938964844, 0.0, 0.0]
---
header: 
  seq: 26315
  stamp: 
    secs: 1701089995
    nsecs: 299413262
  frame_id: ''
name: 
  - joint1
  - joint2
  - joint3
  - joint4
  - gripper
position: [0.0, -0.2316311001777649, -0.3635534644126892, 2.1491072177886963, 0.045168067216873165]
velocity: [0.0, 0.0, 0.0, 0.0, 0.0]
effort: [0.0, -94.1500015258789, -86.08000183105469, 0.0, 0.0]
---
header: 
  seq: 26316
  stamp: 
    secs: 1701089995
    nsecs: 309416073
  frame_id: ''
name: 
  - joint1
  - joint2
  - joint3
  - joint4
  - gripper
position: [0.0, -0.2316311001777649, -0.3635534644126892, 2.1491072177886963, 0.045168067216873165]
velocity: [0.0, 0.0, 0.0, 0.0, 0.0]
effort: [0.0, -94.1500015258789, -86.08000183105469, 0.0, 0.0]
---
header: 
  seq: 26317
  stamp: 
    secs: 1701089995
    nsecs: 319415421
  frame_id: ''
name: 
  - joint1
  - joint2
  - joint3
  - joint4
  - gripper
position: [0.0, -0.2316311001777649, -0.3635534644126892, 2.1491072177886963, 0.04519107699394226]
velocity: [0.0, 0.0, 0.0, 0.0, 0.0]
effort: [0.0, -94.1500015258789, -86.08000183105469, 0.0, 0.0]
---
header: 
  seq: 26318
  stamp: 
    secs: 1701089995
    nsecs: 329416436
  frame_id: ''
name: 
  - joint1
  - joint2
  - joint3
  - joint4
  - gripper
position: [-0.0015339808305725455, -0.2316311001777649, -0.3635534644126892, 2.1491072177886963, 0.04519107699394226]
velocity: [0.0, 0.0, 0.0, 0.0, 0.0]
effort: [0.0, -91.45999908447266, -88.77000427246094, 0.0, 0.0]
---
header: 
  seq: 26319
  stamp: 
    secs: 1701089995
    nsecs: 339414007
  frame_id: ''
name: 
  - joint1
  - joint2
  - joint3
  - joint4
  - gripper
position: [-0.0015339808305725455, -0.2316311001777649, -0.3635534644126892, 2.1491072177886963, 0.04519107699394226]
velocity: [0.0, 0.0, 0.0, 0.0, 0.0]
effort: [0.0, -91.45999908447266, -88.77000427246094, 0.0, 0.0]
---
header: 
  seq: 26320
  stamp: 
    secs: 1701089995
    nsecs: 349414707
  frame_id: ''
name: 
  - joint1
  - joint2
  - joint3
  - joint4
  - gripper
position: [-0.0015339808305725455, -0.2316311001777649, -0.3635534644126892, 2.1491072177886963, 0.04519107699394226]
velocity: [0.0, 0.0, 0.0, 0.0, 0.0]
effort: [0.0, -91.45999908447266, -88.77000427246094, 0.0, 0.0]
---
header: 
  seq: 26321
  stamp: 
    secs: 1701089995
    nsecs: 359409073
  frame_id: ''
name: 
  - joint1
  - joint2
  - joint3
  - joint4
  - gripper
position: [-0.0015339808305725455, -0.2316311001777649, -0.3635534644126892, 2.1491072177886963, 0.04519107699394226]
velocity: [0.0, 0.0, 0.0, 0.0, 0.0]
effort: [0.0, -91.45999908447266, -88.77000427246094, 0.0, 0.0]
---
header: 
  seq: 26322
  stamp: 
    secs: 1701089995
    nsecs: 369409755
  frame_id: ''
name: 
  - joint1
  - joint2
  - joint3
  - joint4
  - gripper
position: [0.0, -0.2316311001777649, -0.3635534644126892, 2.1491072177886963, 0.04519107699394226]
velocity: [0.0, 0.0, 0.0, 0.0, 0.0]
effort: [0.0, -86.08000183105469, -88.77000427246094, 0.0, 0.0]
---
header: 
  seq: 26323
  stamp: 
    secs: 1701089995
    nsecs: 379415992
  frame_id: ''
name: 
  - joint1
  - joint2
  - joint3
  - joint4
  - gripper
position: [0.0, -0.2316311001777649, -0.3635534644126892, 2.1491072177886963, 0.045168067216873165]
velocity: [0.0, 0.0, 0.0, 0.0, 0.0]
effort: [0.0, -86.08000183105469, -88.77000427246094, 0.0, 0.0]
---
header: 
  seq: 26324
  stamp: 
    secs: 1701089995
    nsecs: 389417784
  frame_id: ''
name: 
  - joint1
  - joint2
  - joint3
  - joint4
  - gripper
position: [0.0, -0.2316311001777649, -0.3635534644126892, 2.1491072177886963, 0.045168067216873165]
velocity: [0.0, 0.0, 0.0, 0.0, 0.0]
effort: [0.0, -86.08000183105469, -88.77000427246094, 0.0, 0.0]
---
header: 
  seq: 26325
  stamp: 
    secs: 1701089995
    nsecs: 399411447
  frame_id: ''
name: 
  - joint1
  - joint2
  - joint3
  - joint4
  - gripper
position: [-0.0015339808305725455, -0.2316311001777649, -0.3635534644126892, 2.1491072177886963, 0.045168067216873165]
velocity: [0.0, 0.0, 0.0, 0.0, 0.0]
effort: [0.0, -94.1500015258789, -110.29000091552734, 0.0, 0.0]
---
header: 
  seq: 26326
  stamp: 
    secs: 1701089995
    nsecs: 409417369
  frame_id: ''
name: 
  - joint1
  - joint2
  - joint3
  - joint4
  - gripper
position: [-0.0015339808305725455, -0.2316311001777649, -0.3635534644126892, 2.1491072177886963, 0.04519107699394226]
velocity: [0.0, 0.0, 0.0, 0.0, 0.0]
effort: [0.0, -94.1500015258789, -110.29000091552734, 0.0, 0.0]
---
header: 
  seq: 26327
  stamp: 
    secs: 1701089995
    nsecs: 419414829
  frame_id: ''
name: 
  - joint1
  - joint2
  - joint3
  - joint4
  - gripper
position: [-0.0015339808305725455, -0.2316311001777649, -0.3635534644126892, 2.1491072177886963, 0.04519107699394226]
velocity: [0.0, 0.0, 0.0, 0.0, 0.0]
effort: [0.0, -94.1500015258789, -110.29000091552734, 0.0, 0.0]
---
header: 
  seq: 26328
  stamp: 
    secs: 1701089995
    nsecs: 429416936
  frame_id: ''
name: 
  - joint1
  - joint2
  - joint3
  - joint4
  - gripper
position: [0.0, -0.2316311001777649, -0.3635534644126892, 2.1491072177886963, 0.04519107699394226]
velocity: [0.0, 0.0, 0.0, 0.0, 0.0]
effort: [0.0, -91.45999908447266, -107.60000610351562, 0.0, 0.0]
---
header: 
  seq: 26329
  stamp: 
    secs: 1701089995
    nsecs: 439436228
  frame_id: ''
name: 
  - joint1
  - joint2
  - joint3
  - joint4
  - gripper
position: [0.0, -0.2316311001777649, -0.3635534644126892, 2.1491072177886963, 0.04519107699394226]
velocity: [0.0, 0.0, 0.0, 0.0, 0.0]
effort: [0.0, -91.45999908447266, -107.60000610351562, 0.0, 0.0]
---
header: 
  seq: 26330
  stamp: 
    secs: 1701089995
    nsecs: 449440243
  frame_id: ''
name: 
  - joint1
  - joint2
  - joint3
  - joint4
  - gripper
position: [0.0, -0.2316311001777649, -0.3635534644126892, 2.1491072177886963, 0.04519107699394226]
velocity: [0.0, 0.0, 0.0, 0.0, 0.0]
effort: [0.0, -91.45999908447266, -107.60000610351562, 0.0, 0.0]
---
header: 
  seq: 26331
  stamp: 
    secs: 1701089995
    nsecs: 459409462
  frame_id: ''
name: 
  - joint1
  - joint2
  - joint3
  - joint4
  - gripper
position: [0.0, -0.2316311001777649, -0.3635534644126892, 2.1491072177886963, 0.04519107699394226]
velocity: [0.0, 0.0, 0.0, 0.0, 0.0]
effort: [0.0, -91.45999908447266, -107.60000610351562, 0.0, 0.0]
---
header: 
  seq: 26332
  stamp: 
    secs: 1701089995
    nsecs: 469408588
  frame_id: ''
name: 
  - joint1
  - joint2
  - joint3
  - joint4
  - gripper
position: [0.0, -0.2316311001777649, -0.3635534644126892, 2.1491072177886963, 0.04519107699394226]
velocity: [0.0, 0.0, 0.0, 0.0, 0.0]
effort: [0.0, -91.45999908447266, -107.60000610351562, 0.0, 0.0]
---
header: 
  seq: 26333
  stamp: 
    secs: 1701089995
    nsecs: 479418547
  frame_id: ''
name: 
  - joint1
  - joint2
  - joint3
  - joint4
  - gripper
position: [0.0, -0.2316311001777649, -0.3635534644126892, 2.1491072177886963, 0.04519107699394226]
velocity: [0.0, 0.0, 0.0, 0.0, 0.0]
effort: [0.0, -91.45999908447266, -107.60000610351562, 0.0, 0.0]
---
header: 
  seq: 26334
  stamp: 
    secs: 1701089995
    nsecs: 489417765
  frame_id: ''
name: 
  - joint1
  - joint2
  - joint3
  - joint4
  - gripper
position: [0.0, -0.2316311001777649, -0.3635534644126892, 2.1491072177886963, 0.04519107699394226]
velocity: [0.0, 0.0, 0.0, 0.0, 0.0]
effort: [0.0, -88.77000427246094, -104.91000366210938, -2.690000057220459, 0.0]
---
header: 
  seq: 26335
  stamp: 
    secs: 1701089995
    nsecs: 499412058
  frame_id: ''
name: 
  - joint1
  - joint2
  - joint3
  - joint4
  - gripper
position: [0.0, -0.2316311001777649, -0.3635534644126892, 2.1491072177886963, 0.04519107699394226]
velocity: [0.0, 0.0, 0.0, 0.0, 0.0]
effort: [0.0, -88.77000427246094, -104.91000366210938, -2.690000057220459, 0.0]
---
header: 
  seq: 26336
  stamp: 
    secs: 1701089995
    nsecs: 509420221
  frame_id: ''
name: 
  - joint1
  - joint2
  - joint3
  - joint4
  - gripper
position: [0.0, -0.2316311001777649, -0.3635534644126892, 2.1491072177886963, 0.04519107699394226]
velocity: [0.0, 0.0, 0.0, 0.0, 0.0]
effort: [0.0, -88.77000427246094, -104.91000366210938, -2.690000057220459, 0.0]
---
header: 
  seq: 26337
  stamp: 
    secs: 1701089995
    nsecs: 519415551
  frame_id: ''
name: 
  - joint1
  - joint2
  - joint3
  - joint4
  - gripper
position: [0.0, -0.2316311001777649, -0.3635534644126892, 2.1491072177886963, 0.04519107699394226]
velocity: [0.0, 0.0, 0.0, 0.0, 0.0]
effort: [0.0, -88.77000427246094, -104.91000366210938, -2.690000057220459, 0.0]
---
header: 
  seq: 26338
  stamp: 
    secs: 1701089995
    nsecs: 529419288
  frame_id: ''
name: 
  - joint1
  - joint2
  - joint3
  - joint4
  - gripper
position: [0.0, -0.2316311001777649, -0.3635534644126892, 2.1491072177886963, 0.04519107699394226]
velocity: [0.0, 0.0, 0.0, 0.0, 0.0]
effort: [0.0, -94.1500015258789, -94.1500015258789, -2.690000057220459, 0.0]
---
header: 
  seq: 26339
  stamp: 
    secs: 1701089995
    nsecs: 539413950
  frame_id: ''
name: 
  - joint1
  - joint2
  - joint3
  - joint4
  - gripper
position: [0.0, -0.2316311001777649, -0.3635534644126892, 2.1491072177886963, 0.045168067216873165]
velocity: [0.0, 0.0, 0.0, 0.0, 0.0]
effort: [0.0, -94.1500015258789, -94.1500015258789, -2.690000057220459, 0.0]
---
header: 
  seq: 26340
  stamp: 
    secs: 1701089995
    nsecs: 549412021
  frame_id: ''
name: 
  - joint1
  - joint2
  - joint3
  - joint4
  - gripper
position: [0.0, -0.2316311001777649, -0.3635534644126892, 2.1491072177886963, 0.045168067216873165]
velocity: [0.0, 0.0, 0.0, 0.0, 0.0]
effort: [0.0, -94.1500015258789, -94.1500015258789, -2.690000057220459, 0.0]
---
header: 
  seq: 26341
  stamp: 
    secs: 1701089995
    nsecs: 559410165
  frame_id: ''
name: 
  - joint1
  - joint2
  - joint3
  - joint4
  - gripper
position: [0.0, -0.2316311001777649, -0.3635534644126892, 2.1491072177886963, 0.045168067216873165]
velocity: [0.0, 0.0, 0.0, 0.0, 0.0]
effort: [0.0, -94.1500015258789, -107.60000610351562, -2.690000057220459, 0.0]
---
header: 
  seq: 26342
  stamp: 
    secs: 1701089995
    nsecs: 569409625
  frame_id: ''
name: 
  - joint1
  - joint2
  - joint3
  - joint4
  - gripper
position: [0.0, -0.2316311001777649, -0.3635534644126892, 2.1491072177886963, 0.04519107699394226]
velocity: [0.0, 0.0, 0.0, 0.0, 0.0]
effort: [0.0, -94.1500015258789, -107.60000610351562, -2.690000057220459, 0.0]
---
header: 
  seq: 26343
  stamp: 
    secs: 1701089995
    nsecs: 579419269
  frame_id: ''
name: 
  - joint1
  - joint2
  - joint3
  - joint4
  - gripper
position: [0.0, -0.2316311001777649, -0.3635534644126892, 2.1491072177886963, 0.04519107699394226]
velocity: [0.0, 0.0, 0.0, 0.0, 0.0]
effort: [0.0, -94.1500015258789, -107.60000610351562, -2.690000057220459, 0.0]
---
header: 
  seq: 26344
  stamp: 
    secs: 1701089995
    nsecs: 589418413
  frame_id: ''
name: 
  - joint1
  - joint2
  - joint3
  - joint4
  - gripper
position: [-0.0015339808305725455, -0.2316311001777649, -0.3635534644126892, 2.1491072177886963, 0.04519107699394226]
velocity: [0.0, 0.0, 0.0, 0.0, 0.0]
effort: [0.0, -91.45999908447266, -88.77000427246094, -2.690000057220459, 0.0]
---
header: 
  seq: 26345
  stamp: 
    secs: 1701089995
    nsecs: 599411632
  frame_id: ''
name: 
  - joint1
  - joint2
  - joint3
  - joint4
  - gripper
position: [-0.0015339808305725455, -0.2316311001777649, -0.3635534644126892, 2.1491072177886963, 0.04519107699394226]
velocity: [0.0, 0.0, 0.0, 0.0, 0.0]
effort: [0.0, -91.45999908447266, -88.77000427246094, -2.690000057220459, 0.0]
---
header: 
  seq: 26346
  stamp: 
    secs: 1701089995
    nsecs: 609420980
  frame_id: ''
name: 
  - joint1
  - joint2
  - joint3
  - joint4
  - gripper
position: [-0.0015339808305725455, -0.2316311001777649, -0.3635534644126892, 2.1491072177886963, 0.045168067216873165]
velocity: [0.0, 0.0, 0.0, 0.0, 0.0]
effort: [0.0, -91.45999908447266, -88.77000427246094, -2.690000057220459, 0.0]
---
header: 
  seq: 26347
  stamp: 
    secs: 1701089995
    nsecs: 619414939
  frame_id: ''
name: 
  - joint1
  - joint2
  - joint3
  - joint4
  - gripper
position: [-0.0015339808305725455, -0.2316311001777649, -0.3635534644126892, 2.1491072177886963, 0.045168067216873165]
velocity: [0.0, 0.0, 0.0, 0.0, 0.0]
effort: [0.0, -94.1500015258789, -112.9800033569336, -2.690000057220459, 0.0]
---
header: 
  seq: 26348
  stamp: 
    secs: 1701089995
    nsecs: 629417324
  frame_id: ''
name: 
  - joint1
  - joint2
  - joint3
  - joint4
  - gripper
position: [-0.0015339808305725455, -0.2316311001777649, -0.3635534644126892, 2.1491072177886963, 0.045168067216873165]
velocity: [0.0, 0.0, 0.0, 0.0, 0.0]
effort: [0.0, -94.1500015258789, -112.9800033569336, -2.690000057220459, 0.0]
---
header: 
  seq: 26349
  stamp: 
    secs: 1701089995
    nsecs: 639411191
  frame_id: ''
name: 
  - joint1
  - joint2
  - joint3
  - joint4
  - gripper
position: [-0.0015339808305725455, -0.2316311001777649, -0.3635534644126892, 2.1491072177886963, 0.045168067216873165]
velocity: [0.0, 0.0, 0.0, 0.0, 0.0]
effort: [0.0, -94.1500015258789, -112.9800033569336, -2.690000057220459, 0.0]
---
header: 
  seq: 26350
  stamp: 
    secs: 1701089995
    nsecs: 649412206
  frame_id: ''
name: 
  - joint1
  - joint2
  - joint3
  - joint4
  - gripper
position: [-0.0015339808305725455, -0.2316311001777649, -0.3635534644126892, 2.1491072177886963, 0.045168067216873165]
velocity: [0.0, 0.0, 0.0, 0.0, 0.0]
effort: [0.0, -91.45999908447266, -107.60000610351562, -2.690000057220459, 0.0]
---
header: 
  seq: 26351
  stamp: 
    secs: 1701089995
    nsecs: 659409665
  frame_id: ''
name: 
  - joint1
  - joint2
  - joint3
  - joint4
  - gripper
position: [-0.0015339808305725455, -0.2316311001777649, -0.3635534644126892, 2.1491072177886963, 0.045168067216873165]
velocity: [0.0, 0.0, 0.0, 0.0, 0.0]
effort: [0.0, -91.45999908447266, -107.60000610351562, -2.690000057220459, 0.0]
---
header: 
  seq: 26352
  stamp: 
    secs: 1701089995
    nsecs: 669413643
  frame_id: ''
name: 
  - joint1
  - joint2
  - joint3
  - joint4
  - gripper
position: [-0.0015339808305725455, -0.2316311001777649, -0.3635534644126892, 2.1491072177886963, 0.045168067216873165]
velocity: [0.0, 0.0, 0.0, 0.0, 0.0]
effort: [0.0, -91.45999908447266, -107.60000610351562, -2.690000057220459, 0.0]
---
header: 
  seq: 26353
  stamp: 
    secs: 1701089995
    nsecs: 679416843
  frame_id: ''
name: 
  - joint1
  - joint2
  - joint3
  - joint4
  - gripper
position: [-0.0015339808305725455, -0.2316311001777649, -0.3635534644126892, 2.1491072177886963, 0.045168067216873165]
velocity: [0.0, 0.0, 0.0, 0.0, 0.0]
effort: [0.0, -91.45999908447266, -107.60000610351562, -2.690000057220459, 0.0]
---
header: 
  seq: 26354
  stamp: 
    secs: 1701089995
    nsecs: 689419580
  frame_id: ''
name: 
  - joint1
  - joint2
  - joint3
  - joint4
  - gripper
position: [0.0, -0.2316311001777649, -0.3635534644126892, 2.1506412029266357, 0.045168067216873165]
velocity: [0.0, 0.0, 0.0, 0.0, 0.0]
effort: [0.0, -91.45999908447266, -107.60000610351562, -2.690000057220459, 0.0]
---
header: 
  seq: 26355
  stamp: 
    secs: 1701089995
    nsecs: 699413835
  frame_id: ''
name: 
  - joint1
  - joint2
  - joint3
  - joint4
  - gripper
position: [0.0, -0.2316311001777649, -0.3635534644126892, 2.1506412029266357, 0.045168067216873165]
velocity: [0.0, 0.0, 0.0, 0.0, 0.0]
effort: [0.0, -91.45999908447266, -107.60000610351562, -2.690000057220459, 0.0]
---
header: 
  seq: 26356
  stamp: 
    secs: 1701089995
    nsecs: 709419350
  frame_id: ''
name: 
  - joint1
  - joint2
  - joint3
  - joint4
  - gripper
position: [0.0, -0.2316311001777649, -0.3635534644126892, 2.1506412029266357, 0.045168067216873165]
velocity: [0.0, 0.0, 0.0, 0.0, 0.0]
effort: [0.0, -91.45999908447266, -107.60000610351562, -2.690000057220459, 0.0]
---
header: 
  seq: 26357
  stamp: 
    secs: 1701089995
    nsecs: 719439883
  frame_id: ''
name: 
  - joint1
  - joint2
  - joint3
  - joint4
  - gripper
position: [0.0, -0.2316311001777649, -0.3635534644126892, 2.1491072177886963, 0.045168067216873165]
velocity: [0.0, 0.0, 0.0, 0.0, 0.0]
effort: [0.0, -94.1500015258789, -107.60000610351562, -2.690000057220459, 0.0]
---
header: 
  seq: 26358
  stamp: 
    secs: 1701089995
    nsecs: 729441676
  frame_id: ''
name: 
  - joint1
  - joint2
  - joint3
  - joint4
  - gripper
position: [0.0, -0.2316311001777649, -0.3635534644126892, 2.1491072177886963, 0.045168067216873165]
velocity: [0.0, 0.0, 0.0, 0.0, 0.0]
effort: [0.0, -94.1500015258789, -107.60000610351562, -2.690000057220459, 0.0]
---
header: 
  seq: 26359
  stamp: 
    secs: 1701089995
    nsecs: 739412654
  frame_id: ''
name: 
  - joint1
  - joint2
  - joint3
  - joint4
  - gripper
position: [0.0, -0.2316311001777649, -0.3635534644126892, 2.1491072177886963, 0.045168067216873165]
velocity: [0.0, 0.0, 0.0, 0.0, 0.0]
effort: [0.0, -94.1500015258789, -107.60000610351562, -2.690000057220459, 0.0]
---
header: 
  seq: 26360
  stamp: 
    secs: 1701089995
    nsecs: 749411928
  frame_id: ''
name: 
  - joint1
  - joint2
  - joint3
  - joint4
  - gripper
position: [0.0, -0.2316311001777649, -0.3635534644126892, 2.1491072177886963, 0.045168067216873165]
velocity: [0.0, 0.0, 0.0, 0.0, 0.0]
effort: [0.0, -94.1500015258789, -86.08000183105469, -2.690000057220459, 0.0]
---
header: 
  seq: 26361
  stamp: 
    secs: 1701089995
    nsecs: 759409331
  frame_id: ''
name: 
  - joint1
  - joint2
  - joint3
  - joint4
  - gripper
position: [0.0, -0.2316311001777649, -0.3635534644126892, 2.1491072177886963, 0.045168067216873165]
velocity: [0.0, 0.0, 0.0, 0.0, 0.0]
effort: [0.0, -94.1500015258789, -86.08000183105469, -2.690000057220459, 0.0]
---
header: 
  seq: 26362
  stamp: 
    secs: 1701089995
    nsecs: 769411217
  frame_id: ''
name: 
  - joint1
  - joint2
  - joint3
  - joint4
  - gripper
position: [0.0, -0.2316311001777649, -0.3635534644126892, 2.1491072177886963, 0.045168067216873165]
velocity: [0.0, 0.0, 0.0, 0.0, 0.0]
effort: [0.0, -94.1500015258789, -86.08000183105469, -2.690000057220459, 0.0]
---
header: 
  seq: 26363
  stamp: 
    secs: 1701089995
    nsecs: 779416842
  frame_id: ''
name: 
  - joint1
  - joint2
  - joint3
  - joint4
  - gripper
position: [0.0, -0.23009712994098663, -0.3635534644126892, 2.1491072177886963, 0.045168067216873165]
velocity: [0.0, 0.0, 0.0, 0.0, 0.0]
effort: [0.0, -91.45999908447266, -110.29000091552734, -2.690000057220459, 0.0]
---
header: 
  seq: 26364
  stamp: 
    secs: 1701089995
    nsecs: 789418691
  frame_id: ''
name: 
  - joint1
  - joint2
  - joint3
  - joint4
  - gripper
position: [0.0, -0.23009712994098663, -0.3635534644126892, 2.1491072177886963, 0.045168067216873165]
velocity: [0.0, 0.0, 0.0, 0.0, 0.0]
effort: [0.0, -91.45999908447266, -110.29000091552734, -2.690000057220459, 0.0]
---
header: 
  seq: 26365
  stamp: 
    secs: 1701089995
    nsecs: 799413539
  frame_id: ''
name: 
  - joint1
  - joint2
  - joint3
  - joint4
  - gripper
position: [0.0, -0.23009712994098663, -0.3635534644126892, 2.1491072177886963, 0.045168067216873165]
velocity: [0.0, 0.0, 0.0, 0.0, 0.0]
effort: [0.0, -91.45999908447266, -110.29000091552734, -2.690000057220459, 0.0]
---
header: 
  seq: 26366
  stamp: 
    secs: 1701089995
    nsecs: 809416572
  frame_id: ''
name: 
  - joint1
  - joint2
  - joint3
  - joint4
  - gripper
position: [-0.0015339808305725455, -0.2316311001777649, -0.3635534644126892, 2.1491072177886963, 0.045168067216873165]
velocity: [0.0, 0.0, 0.0, 0.0, 0.0]
effort: [0.0, -94.1500015258789, -104.91000366210938, -2.690000057220459, 0.0]
---
header: 
  seq: 26367
  stamp: 
    secs: 1701089995
    nsecs: 819413828
  frame_id: ''
name: 
  - joint1
  - joint2
  - joint3
  - joint4
  - gripper
position: [-0.0015339808305725455, -0.2316311001777649, -0.3635534644126892, 2.1491072177886963, 0.045168067216873165]
velocity: [0.0, 0.0, 0.0, 0.0, 0.0]
effort: [0.0, -94.1500015258789, -104.91000366210938, -2.690000057220459, 0.0]
---
header: 
  seq: 26368
  stamp: 
    secs: 1701089995
    nsecs: 829419750
  frame_id: ''
name: 
  - joint1
  - joint2
  - joint3
  - joint4
  - gripper
position: [-0.0015339808305725455, -0.2316311001777649, -0.3635534644126892, 2.1491072177886963, 0.04519107699394226]
velocity: [0.0, 0.0, 0.0, 0.0, 0.0]
effort: [0.0, -94.1500015258789, -104.91000366210938, -2.690000057220459, 0.0]
---
header: 
  seq: 26369
  stamp: 
    secs: 1701089995
    nsecs: 839412968
  frame_id: ''
name: 
  - joint1
  - joint2
  - joint3
  - joint4
  - gripper
position: [-0.0015339808305725455, -0.2316311001777649, -0.3635534644126892, 2.1491072177886963, 0.04519107699394226]
velocity: [0.0, 0.0, 0.0, 0.0, 0.0]
effort: [0.0, -94.1500015258789, -104.91000366210938, -2.690000057220459, 0.0]
---
header: 
  seq: 26370
  stamp: 
    secs: 1701089995
    nsecs: 849411261
  frame_id: ''
name: 
  - joint1
  - joint2
  - joint3
  - joint4
  - gripper
position: [-0.0015339808305725455, -0.2316311001777649, -0.3635534644126892, 2.1491072177886963, 0.04519107699394226]
velocity: [0.0, 0.0, 0.0, 0.0, 0.0]
effort: [0.0, -91.45999908447266, -86.08000183105469, 0.0, 0.0]
---
header: 
  seq: 26371
  stamp: 
    secs: 1701089995
    nsecs: 859410535
  frame_id: ''
name: 
  - joint1
  - joint2
  - joint3
  - joint4
  - gripper
position: [-0.0015339808305725455, -0.2316311001777649, -0.3635534644126892, 2.1491072177886963, 0.04519107699394226]
velocity: [0.0, 0.0, 0.0, 0.0, 0.0]
effort: [0.0, -91.45999908447266, -86.08000183105469, 0.0, 0.0]
---
header: 
  seq: 26372
  stamp: 
    secs: 1701089995
    nsecs: 869407939
  frame_id: ''
name: 
  - joint1
  - joint2
  - joint3
  - joint4
  - gripper
position: [-0.0015339808305725455, -0.2316311001777649, -0.3635534644126892, 2.1491072177886963, 0.04519107699394226]
velocity: [0.0, 0.0, 0.0, 0.0, 0.0]
effort: [0.0, -91.45999908447266, -86.08000183105469, 0.0, 0.0]
---
header: 
  seq: 26373
  stamp: 
    secs: 1701089995
    nsecs: 879417175
  frame_id: ''
name: 
  - joint1
  - joint2
  - joint3
  - joint4
  - gripper
position: [0.0, -0.2316311001777649, -0.3635534644126892, 2.1491072177886963, 0.04519107699394226]
velocity: [0.0, 0.0, 0.0, 0.0, 0.0]
effort: [0.0, -94.1500015258789, -78.01000213623047, 0.0, 0.0]
---
header: 
  seq: 26374
  stamp: 
    secs: 1701089995
    nsecs: 889418209
  frame_id: ''
name: 
  - joint1
  - joint2
  - joint3
  - joint4
  - gripper
position: [0.0, -0.2316311001777649, -0.3635534644126892, 2.1491072177886963, 0.045168067216873165]
velocity: [0.0, 0.0, 0.0, 0.0, 0.0]
effort: [0.0, -94.1500015258789, -78.01000213623047, 0.0, 0.0]
---
header: 
  seq: 26375
  stamp: 
    secs: 1701089995
    nsecs: 899410557
  frame_id: ''
name: 
  - joint1
  - joint2
  - joint3
  - joint4
  - gripper
position: [0.0, -0.2316311001777649, -0.3635534644126892, 2.1491072177886963, 0.045168067216873165]
velocity: [0.0, 0.0, 0.0, 0.0, 0.0]
effort: [0.0, -94.1500015258789, -78.01000213623047, 0.0, 0.0]
---
header: 
  seq: 26376
  stamp: 
    secs: 1701089995
    nsecs: 909416590
  frame_id: ''
name: 
  - joint1
  - joint2
  - joint3
  - joint4
  - gripper
position: [0.0, -0.2316311001777649, -0.3635534644126892, 2.1491072177886963, 0.045168067216873165]
velocity: [0.0, 0.0, 0.0, 0.0, 0.0]
effort: [0.0, -91.45999908447266, -107.60000610351562, -2.690000057220459, 0.0]
---
header: 
  seq: 26377
  stamp: 
    secs: 1701089995
    nsecs: 919413105
  frame_id: ''
name: 
  - joint1
  - joint2
  - joint3
  - joint4
  - gripper
position: [0.0, -0.2316311001777649, -0.3635534644126892, 2.1491072177886963, 0.045168067216873165]
velocity: [0.0, 0.0, 0.0, 0.0, 0.0]
effort: [0.0, -91.45999908447266, -107.60000610351562, -2.690000057220459, 0.0]
---
header: 
  seq: 26378
  stamp: 
    secs: 1701089995
    nsecs: 929419935
  frame_id: ''
name: 
  - joint1
  - joint2
  - joint3
  - joint4
  - gripper
position: [0.0, -0.2316311001777649, -0.3635534644126892, 2.1491072177886963, 0.04519107699394226]
velocity: [0.0, 0.0, 0.0, 0.0, 0.0]
effort: [0.0, -91.45999908447266, -107.60000610351562, -2.690000057220459, 0.0]
---
header: 
  seq: 26379
  stamp: 
    secs: 1701089995
    nsecs: 939414468
  frame_id: ''
name: 
  - joint1
  - joint2
  - joint3
  - joint4
  - gripper
position: [0.0, -0.2316311001777649, -0.36508744955062866, 2.1491072177886963, 0.04519107699394226]
velocity: [0.0, 0.0, 0.0, 0.0, 0.0]
effort: [0.0, -94.1500015258789, -107.60000610351562, -2.690000057220459, 0.0]
---
header: 
  seq: 26380
  stamp: 
    secs: 1701089995
    nsecs: 949408946
  frame_id: ''
name: 
  - joint1
  - joint2
  - joint3
  - joint4
  - gripper
position: [0.0, -0.2316311001777649, -0.36508744955062866, 2.1491072177886963, 0.04519107699394226]
velocity: [0.0, 0.0, 0.0, 0.0, 0.0]
effort: [0.0, -94.1500015258789, -107.60000610351562, -2.690000057220459, 0.0]
---
header: 
  seq: 26381
  stamp: 
    secs: 1701089995
    nsecs: 959411109
  frame_id: ''
name: 
  - joint1
  - joint2
  - joint3
  - joint4
  - gripper
position: [0.0, -0.2316311001777649, -0.36508744955062866, 2.1491072177886963, 0.04519107699394226]
velocity: [0.0, 0.0, 0.0, 0.0, 0.0]
effort: [0.0, -94.1500015258789, -107.60000610351562, -2.690000057220459, 0.0]
---
header: 
  seq: 26382
  stamp: 
    secs: 1701089995
    nsecs: 969410049
  frame_id: ''
name: 
  - joint1
  - joint2
  - joint3
  - joint4
  - gripper
position: [-0.0015339808305725455, -0.2316311001777649, -0.3635534644126892, 2.1491072177886963, 0.04519107699394226]
velocity: [0.0, 0.0, 0.0, 0.0, 0.0]
effort: [0.0, -94.1500015258789, -110.29000091552734, -2.690000057220459, 0.0]
---
header: 
  seq: 26383
  stamp: 
    secs: 1701089995
    nsecs: 979520878
  frame_id: ''
name: 
  - joint1
  - joint2
  - joint3
  - joint4
  - gripper
position: [-0.0015339808305725455, -0.2316311001777649, -0.3635534644126892, 2.1491072177886963, 0.04519107699394226]
velocity: [0.0, 0.0, 0.0, 0.0, 0.0]
effort: [0.0, -94.1500015258789, -110.29000091552734, -2.690000057220459, 0.0]
---
header: 
  seq: 26384
  stamp: 
    secs: 1701089995
    nsecs: 989419579
  frame_id: ''
name: 
  - joint1
  - joint2
  - joint3
  - joint4
  - gripper
position: [-0.0015339808305725455, -0.2316311001777649, -0.3635534644126892, 2.1491072177886963, 0.045168067216873165]
velocity: [0.0, 0.0, 0.0, 0.0, 0.0]
effort: [0.0, -94.1500015258789, -110.29000091552734, -2.690000057220459, 0.0]
---
header: 
  seq: 26385
  stamp: 
    secs: 1701089995
    nsecs: 999413427
  frame_id: ''
name: 
  - joint1
  - joint2
  - joint3
  - joint4
  - gripper
position: [-0.0015339808305725455, -0.2316311001777649, -0.3635534644126892, 2.1491072177886963, 0.045168067216873165]
velocity: [0.0, 0.0, 0.0, 0.0, 0.0]
effort: [0.0, -94.1500015258789, -110.29000091552734, -2.690000057220459, 0.0]
---
header: 
  seq: 26386
  stamp: 
    secs: 1701089996
    nsecs:   9419645
  frame_id: ''
name: 
  - joint1
  - joint2
  - joint3
  - joint4
  - gripper
position: [0.0, -0.2316311001777649, -0.3635534644126892, 2.1491072177886963, 0.045168067216873165]
velocity: [0.0, 0.0, 0.0, 0.0, 0.0]
effort: [0.0, -94.1500015258789, -110.29000091552734, -2.690000057220459, 0.0]
---
header: 
  seq: 26387
  stamp: 
    secs: 1701089996
    nsecs:  19417327
  frame_id: ''
name: 
  - joint1
  - joint2
  - joint3
  - joint4
  - gripper
position: [0.0, -0.2316311001777649, -0.3635534644126892, 2.1491072177886963, 0.045168067216873165]
velocity: [0.0, 0.0, 0.0, 0.0, 0.0]
effort: [0.0, -94.1500015258789, -110.29000091552734, -2.690000057220459, 0.0]
---
header: 
  seq: 26388
  stamp: 
    secs: 1701089996
    nsecs:  29420860
  frame_id: ''
name: 
  - joint1
  - joint2
  - joint3
  - joint4
  - gripper
position: [0.0, -0.2316311001777649, -0.3635534644126892, 2.1491072177886963, 0.045168067216873165]
velocity: [0.0, 0.0, 0.0, 0.0, 0.0]
effort: [0.0, -94.1500015258789, -110.29000091552734, -2.690000057220459, 0.0]
---
header: 
  seq: 26389
  stamp: 
    secs: 1701089996
    nsecs:  39411875
  frame_id: ''
name: 
  - joint1
  - joint2
  - joint3
  - joint4
  - gripper
position: [-0.0015339808305725455, -0.2316311001777649, -0.3635534644126892, 2.1491072177886963, 0.045168067216873165]
velocity: [0.0, 0.0, 0.0, 0.0, 0.0]
effort: [0.0, -94.1500015258789, -83.38999938964844, -2.690000057220459, 0.0]
---
header: 
  seq: 26390
  stamp: 
    secs: 1701089996
    nsecs:  49409853
  frame_id: ''
name: 
  - joint1
  - joint2
  - joint3
  - joint4
  - gripper
position: [-0.0015339808305725455, -0.2316311001777649, -0.3635534644126892, 2.1491072177886963, 0.045168067216873165]
velocity: [0.0, 0.0, 0.0, 0.0, 0.0]
effort: [0.0, -94.1500015258789, -83.38999938964844, -2.690000057220459, 0.0]
---
header: 
  seq: 26391
  stamp: 
    secs: 1701089996
    nsecs:  59409219
  frame_id: ''
name: 
  - joint1
  - joint2
  - joint3
  - joint4
  - gripper
position: [-0.0015339808305725455, -0.2316311001777649, -0.3635534644126892, 2.1491072177886963, 0.045168067216873165]
velocity: [0.0, 0.0, 0.0, 0.0, 0.0]
effort: [0.0, -94.1500015258789, -83.38999938964844, -2.690000057220459, 0.0]
---
header: 
  seq: 26392
  stamp: 
    secs: 1701089996
    nsecs:  69408753
  frame_id: ''
name: 
  - joint1
  - joint2
  - joint3
  - joint4
  - gripper
position: [0.0, -0.2316311001777649, -0.3635534644126892, 2.1491072177886963, 0.045168067216873165]
velocity: [0.0, 0.0, 0.0, 0.0, 0.0]
effort: [0.0, -94.1500015258789, -86.08000183105469, -2.690000057220459, 0.0]
---
header: 
  seq: 26393
  stamp: 
    secs: 1701089996
    nsecs:  79416119
  frame_id: ''
name: 
  - joint1
  - joint2
  - joint3
  - joint4
  - gripper
position: [0.0, -0.2316311001777649, -0.3635534644126892, 2.1491072177886963, 0.045168067216873165]
velocity: [0.0, 0.0, 0.0, 0.0, 0.0]
effort: [0.0, -94.1500015258789, -86.08000183105469, -2.690000057220459, 0.0]
---
header: 
  seq: 26394
  stamp: 
    secs: 1701089996
    nsecs:  89417153
  frame_id: ''
name: 
  - joint1
  - joint2
  - joint3
  - joint4
  - gripper
position: [0.0, -0.2316311001777649, -0.3635534644126892, 2.1491072177886963, 0.045168067216873165]
velocity: [0.0, 0.0, 0.0, 0.0, 0.0]
effort: [0.0, -94.1500015258789, -86.08000183105469, -2.690000057220459, 0.0]
---
header: 
  seq: 26395
  stamp: 
    secs: 1701089996
    nsecs:  99414242
  frame_id: ''
name: 
  - joint1
  - joint2
  - joint3
  - joint4
  - gripper
position: [0.0, -0.2316311001777649, -0.3635534644126892, 2.1491072177886963, 0.045168067216873165]
velocity: [0.0, 0.0, 0.0, 0.0, 0.0]
effort: [0.0, -91.45999908447266, -104.91000366210938, -2.690000057220459, 0.0]
---
header: 
  seq: 26396
  stamp: 
    secs: 1701089996
    nsecs: 109419479
  frame_id: ''
name: 
  - joint1
  - joint2
  - joint3
  - joint4
  - gripper
position: [0.0, -0.2316311001777649, -0.3635534644126892, 2.1491072177886963, 0.045168067216873165]
velocity: [0.0, 0.0, 0.0, 0.0, 0.0]
effort: [0.0, -91.45999908447266, -104.91000366210938, -2.690000057220459, 0.0]
---
header: 
  seq: 26397
  stamp: 
    secs: 1701089996
    nsecs: 119416104
  frame_id: ''
name: 
  - joint1
  - joint2
  - joint3
  - joint4
  - gripper
position: [0.0, -0.2316311001777649, -0.3635534644126892, 2.1491072177886963, 0.045168067216873165]
velocity: [0.0, 0.0, 0.0, 0.0, 0.0]
effort: [0.0, -91.45999908447266, -104.91000366210938, -2.690000057220459, 0.0]
---
header: 
  seq: 26398
  stamp: 
    secs: 1701089996
    nsecs: 129417582
  frame_id: ''
name: 
  - joint1
  - joint2
  - joint3
  - joint4
  - gripper
position: [0.0, -0.2316311001777649, -0.3635534644126892, 2.1491072177886963, 0.045168067216873165]
velocity: [0.0, 0.0, 0.0, 0.0, 0.0]
effort: [0.0, -94.1500015258789, -88.77000427246094, -2.690000057220459, 0.0]
---
header: 
  seq: 26399
  stamp: 
    secs: 1701089996
    nsecs: 139412727
  frame_id: ''
name: 
  - joint1
  - joint2
  - joint3
  - joint4
  - gripper
position: [0.0, -0.2316311001777649, -0.3635534644126892, 2.1491072177886963, 0.045168067216873165]
velocity: [0.0, 0.0, 0.0, 0.0, 0.0]
effort: [0.0, -94.1500015258789, -88.77000427246094, -2.690000057220459, 0.0]
---
header: 
  seq: 26400
  stamp: 
    secs: 1701089996
    nsecs: 149413204
  frame_id: ''
name: 
  - joint1
  - joint2
  - joint3
  - joint4
  - gripper
position: [0.0, -0.2316311001777649, -0.3635534644126892, 2.1491072177886963, 0.045168067216873165]
velocity: [0.0, 0.0, 0.0, 0.0, 0.0]
effort: [0.0, -94.1500015258789, -88.77000427246094, -2.690000057220459, 0.0]
---
header: 
  seq: 26401
  stamp: 
    secs: 1701089996
    nsecs: 159411127
  frame_id: ''
name: 
  - joint1
  - joint2
  - joint3
  - joint4
  - gripper
position: [0.0, -0.2316311001777649, -0.3635534644126892, 2.1491072177886963, 0.045168067216873165]
velocity: [0.0, 0.0, 0.0, 0.0, 0.0]
effort: [0.0, -94.1500015258789, -88.77000427246094, -2.690000057220459, 0.0]
---
header: 
  seq: 26402
  stamp: 
    secs: 1701089996
    nsecs: 169408827
  frame_id: ''
name: 
  - joint1
  - joint2
  - joint3
  - joint4
  - gripper
position: [0.0, -0.2316311001777649, -0.3635534644126892, 2.1491072177886963, 0.045168067216873165]
velocity: [0.0, 0.0, 0.0, 0.0, 0.0]
effort: [0.0, -88.77000427246094, -107.60000610351562, 0.0, 0.0]
---
header: 
  seq: 26403
  stamp: 
    secs: 1701089996
    nsecs: 179418601
  frame_id: ''
name: 
  - joint1
  - joint2
  - joint3
  - joint4
  - gripper
position: [0.0, -0.2316311001777649, -0.3635534644126892, 2.1491072177886963, 0.045168067216873165]
velocity: [0.0, 0.0, 0.0, 0.0, 0.0]
effort: [0.0, -88.77000427246094, -107.60000610351562, 0.0, 0.0]
---
header: 
  seq: 26404
  stamp: 
    secs: 1701089996
    nsecs: 189418060
  frame_id: ''
name: 
  - joint1
  - joint2
  - joint3
  - joint4
  - gripper
position: [0.0, -0.2316311001777649, -0.3635534644126892, 2.1491072177886963, 0.045168067216873165]
velocity: [0.0, 0.0, 0.0, 0.0, 0.0]
effort: [0.0, -88.77000427246094, -107.60000610351562, 0.0, 0.0]
---
header: 
  seq: 26405
  stamp: 
